{"type":"FeatureCollection","features":[{"type":"Feature","properties":{"marker-color":"#7e7e7e","marker-size":"medium","Name":"CVS","Type":"Retail","Address":"3276 Westchester Avenue","Services":"Convenience/Pharmacy"},"geometry":{"type":"Point","coordinates":[-73.82741689682005,40.852307087413315]}},{"type":"Feature","properties":{"marker-color":"#7e7e7e","marker-size":"medium","Name":"Subway","Type":"Food","Services":"Sub Sandwiches","Address":"UNK"},"geometry":{"type":"Point","coordinates":[-73.82744371891022,40.85243693164476]}},{"type":"Feature","properties":{"marker-color":"#7e7e7e","marker-size":"medium","Name":"Baskin Robbins","Type":"Food","Address":"UNK","Services":"Ice Cream"},"geometry":{"type":"Point","coordinates":[-73.82746785879135,40.85253837227351]}},{"type":"Feature","properties":{"marker-color":"#7e7e7e","marker-size":"medium","Name":"Dunkin Donuts","Type":"Food","Services":"Coffee ","Address":"UNK"},"geometry":{"type":"Point","coordinates":[-73.8275134563446,40.85252822821762]}},{"type":"Feature","properties":{"marker-color":"#7e7e7e","marker-size":"medium","Services":"Convenience/Lotto","Type":"Retail","Name":"Subway Shop","Address":"UNK"},"geometry":{"type":"Point","coordinates":[-73.82702261209488,40.85301108355529]}},{"type":"Feature","properties":{"marker-color":"#7e7e7e","marker-size":"medium","Name":"Villa Barone Ristorante","Type":"Food","Services":"Classic Italian Bistro","Address":"UNK"},"geometry":{"type":"Point","coordinates":[-73.82737666368483,40.85330322961392]}},{"type":"Feature","properties":{"marker-color":"#7e7e7e","marker-size":"medium","Type":"Retail/Food","Services":"Convenience Store/Deli","Address":"3287A Westchester Avenue","Name":"Pelham Bay Mini Market"},"geometry":{"type":"Point","coordinates":[-73.82744640111923,40.8531003505432]}},{"type":"Feature","properties":{"marker-color":"#7e7e7e","marker-size":"medium","Address":"3287B Westchester Avenue","Type":"Service","Name":"Car Service","Services":"Car Service"},"geometry":{"type":"Point","coordinates":[-73.82748126983643,40.85317135828862]}},{"type":"Feature","properties":{"marker-color":"#7e7e7e","marker-size":"medium","Name":"Wa Beauty Supply","Type":"Retail","Services":"Beauty Supplies/Wigs","Address":"3287 Westchester Avenue"},"geometry":{"type":"Point","coordinates":[-73.82749199867249,40.853002968368614]}},{"type":"Feature","properties":{"marker-color":"#7e7e7e","marker-size":"medium","Services":"Cell Phone Sales/Service","Name":"Boost Mobile","Type":"Retail/Service","Address":"3285 Westchester Avenue"},"geometry":{"type":"Point","coordinates":[-73.8275295495987,40.85290355725105]}},{"type":"Feature","properties":{"marker-color":"#7e7e7e","marker-size":"medium","Services":"Discount Retailer","Type":"Retail","Address":"3285 Westchester Avenue","Name":"Pelham Bay Discount"},"geometry":{"type":"Point","coordinates":[-73.82757246494293,40.85288529804997]}},{"type":"Feature","properties":{"marker-color":"#7e7e7e","marker-size":"medium","Name":"Crosby Cleaners","Type":"Service","Services":"Dry Cleaning","Address":"3279 Westchester Avenue"},"geometry":{"type":"Point","coordinates":[-73.82761806249619,40.85286298124183]}},{"type":"Feature","properties":{"marker-color":"#7e7e7e","marker-size":"medium","Name":"Gana Wine & Spirits","Type":"Alcoholic Beverages","Address":"3279 Westchester Avenue","Services":"Wine/Liquor "},"geometry":{"type":"Point","coordinates":[-73.82766097784042,40.85284472202958]}},{"type":"Feature","properties":{"marker-color":"#7e7e7e","marker-size":"medium","Name":"Kennedy's Chicken & Sandwiches","Type":"Food","Address":"3275 Westchester Avenue","Services":"Fried Chicken/Sandwiches"},"geometry":{"type":"Point","coordinates":[-73.82770657539368,40.85282443401007]}},{"type":"Feature","properties":{"marker-color":"#7e7e7e","marker-size":"medium","Name":"Peghe Deli","Type":"Food","Address":"3273 Weschester Avenue","Services":"Greek & Italian Specialties"},"geometry":{"type":"Point","coordinates":[-73.82777631282806,40.8527980595754]}},{"type":"Feature","properties":{"marker-color":"#7e7e7e","marker-size":"medium","Name":"Johnny Rags N.Y.C.","Type":"Retail","Address":"3257 Westchester Avenue","Services":"Upscale Men & Women's Apparel"},"geometry":{"type":"Point","coordinates":[-73.82828861474991,40.85256880443185]}},{"type":"Feature","properties":{"marker-color":"#7e7e7e","marker-size":"medium","Type":"Retail","Name":"7 Eleven","Services":"Convenience Store","Address":"UNK"},"geometry":{"type":"Point","coordinates":[-73.82876336574554,40.8518323422761]}},{"type":"Feature","properties":{"marker-color":"#7e7e7e","marker-size":"medium","Name":"DOCS Comprehensive Healthcare","Type":"Medical","Address":"3251 Westchester Avenue","Services":"UNK"},"geometry":{"type":"Point","coordinates":[-73.82846027612686,40.85249779604065]}},{"type":"Feature","properties":{"marker-color":"#7e7e7e","marker-size":"medium","Name":"North Bronx Paint & Hardware","Type":"Retail","Address":"3239 Westchester Avenue","Services":"Home Improvement Supplies"},"geometry":{"type":"Point","coordinates":[-73.82875800132751,40.85235172139658]}},{"type":"Feature","properties":{"marker-color":"#7e7e7e","marker-size":"medium","Name":"King Hong","Type":"Food","Address":"3227A Westchester Avenue","Services":"Chinese Take Out and Delivery"},"geometry":{"type":"Point","coordinates":[-73.82910400629044,40.85218738703704]}},{"type":"Feature","properties":{"marker-color":"#7e7e7e","marker-size":"medium","Name":"Bar Pelham","Type":"Bar","Address":"3229 Westchester Avenue","Services":"Bar"},"geometry":{"type":"Point","coordinates":[-73.82903426885605,40.8522178193566]}},{"type":"Feature","properties":{"marker-color":"#7e7e7e","marker-size":"medium","Name":"Electric Paradise","Type":"Service","Address":"3221 Westchester Avenue","Services":"Tanning Salon"},"geometry":{"type":"Point","coordinates":[-73.82928639650345,40.852116378237056]}},{"type":"Feature","properties":{"marker-color":"#7e7e7e","marker-size":"medium","Address":"3223A Westchester Avenue","Type":"Service","Name":"Alex & Chris Beauty Salon & Spa","Services":"Unisex Salon and Spa"},"geometry":{"type":"Point","coordinates":[-73.82923007011412,40.852138695296695]}},{"type":"Feature","properties":{"marker-color":"#7e7e7e","marker-size":"medium","Name":"Medical Rehabilitation Associates","Type":"Medical","Address":"3225 Westchester Avenue","Services":"Physical Therapy, Sports Medicine, etc"},"geometry":{"type":"Point","coordinates":[-73.82917374372482,40.852163041171345]}},{"type":"Feature","properties":{"marker-size":"medium","Name":"Westchester Avenue Pharmacy","Type":"Retail","Services":"Convenience/Pharmacy","Address":"3227 Westchester Avenue","marker-color":"#7e7e7e"},"geometry":{"type":"Point","coordinates":[-73.8291335105896,40.85217724292742]}},{"type":"Feature","properties":{"marker-color":"#7e7e7e","marker-size":"medium","Type":"Medical/Retail","Address":"UNK","Name":"Monroe Orthotics and Prosthetics","Services":"Orthotics, Prosthetics, and Medical Supplies"},"geometry":{"type":"Point","coordinates":[-73.82881432771683,40.85232534677375]}},{"type":"Feature","properties":{"marker-color":"#7e7e7e","marker-size":"medium","Name":"Advanced Chiropractic of Pelham Bay","Type":"Medical","Services":"UNK","Address":"UNK"},"geometry":{"type":"Point","coordinates":[-73.82888406515121,40.852292885685074]}},{"type":"Feature","properties":{"marker-color":"#7e7e7e","marker-size":"medium","Name":"A Secret Garden","Type":"Service","Address":"3231 Westchester Avenue","Services":"Florist"},"geometry":{"type":"Point","coordinates":[-73.82896453142166,40.8522563669413]}},{"type":"Feature","properties":{"marker-color":"#7e7e7e","marker-size":"medium","Name":"Pelham Bay Wellness Center","Address":"UNK","Type":"UNK","Services":"UNK"},"geometry":{"type":"Point","coordinates":[-73.82940977811813,40.852278683953784]}},{"type":"Feature","properties":{"marker-color":"#7e7e7e","marker-size":"medium","Name":"Euro Mart","Services":"Specialty Foods/Grocer","Type":"Grocer","Address":"UNK"},"geometry":{"type":"Point","coordinates":[-73.82936418056488,40.852221876998165]}},{"type":"Feature","properties":{"marker-color":"#7e7e7e","marker-size":"medium","Name":"Chase Bank","Type":"Bank","Address":"3217 Westchester Avenue","Services":"Banking Services"},"geometry":{"type":"Point","coordinates":[-73.82957607507706,40.851976389237024]}},{"type":"Feature","properties":{"marker-color":"#7e7e7e","marker-size":"medium","Name":"Pelham Bay Professional Center","Address":"3250 Westchester Avenue","Type":"UNK","Services":"UNK"},"geometry":{"type":"Point","coordinates":[-73.82839322090149,40.852098118819065]}}]}